{
    "type": "FeatureCollection",
    "crs": {
        "type": "name",
        "properties": {
            "name": "urn:ogc:def:crs:OGC:1.3:CRS84"
        }
    },
    "features": [
        {
            "type": "Feature",
            "properties": {
                "Name": "Serangoon Public Library",
                "Description": "",
                "name": "Serangoon Public Library"
            },
            "geometry": {
                "type": "Point",
                "coordinates": [
                    103.872256917786,
                    1.35072709374027
                ]
            }
        },
        {
            "type": "Feature",
            "properties": {
                "Name": "library@orchard",
                "Description": "",
                "name": "library@orchard"
            },
            "geometry": {
                "type": "Point",
                "coordinates": [
                    103.839669047112,
                    1.30040819039694
                ]
            }
        },
        {
            "type": "Feature",
            "properties": {
                "Name": "Geylang East Public Library",
                "Description": "",
                "name": "Geylang East Public Library"
            },
            "geometry": {
                "type": "Point",
                "coordinates": [
                    103.885837273218,
                    1.31744297942454
                ]
            }
        },
        {
            "type": "Feature",
            "properties": {
                "Name": "Jurong West Public Library",
                "Description": "",
                "name": "Jurong West Public Library"
            },
            "geometry": {
                "type": "Point",
                "coordinates": [
                    103.704512325533,
                    1.34063599253795
                ]
            }
        },
        {
            "type": "Feature",
            "properties": {
                "Name": "Bukit Batok Public Library",
                "Description": "",
                "name": "Bukit Batok Public Library"
            },
            "geometry": {
                "type": "Point",
                "coordinates": [
                    103.749285191724,
                    1.34949754800173
                ]
            }
        },
        {
            "type": "Feature",
            "properties": {
                "Name": "Sengkang Public Library",
                "Description": "",
                "name": "Sengkang Public Library"
            },
            "geometry": {
                "type": "Point",
                "coordinates": [
                    103.894688239041,
                    1.39132876236971
                ]
            }
        },
        {
            "type": "Feature",
            "properties": {
                "Name": "Marine Parade Public Library",
                "Description": "",
                "name": "Marine Parade Public Library"
            },
            "geometry": {
                "type": "Point",
                "coordinates": [
                    103.909581446984,
                    1.30466966872275
                ]
            }
        },
        {
            "type": "Feature",
            "properties": {
                "Name": "Pasir Ris Public Library",
                "Description": "",
                "name": "Pasir Ris Public Library"
            },
            "geometry": {
                "type": "Point",
                "coordinates": [
                    103.949439880186,
                    1.37235750960519
                ]
            }
        },
        {
            "type": "Feature",
            "properties": {
                "Name": "library@chinatown",
                "Description": "",
                "name": "library@chinatown"
            },
            "geometry": {
                "type": "Point",
                "coordinates": [
                    103.844942912669,
                    1.28526073700342
                ]
            }
        },
        {
            "type": "Feature",
            "properties": {
                "Name": "library@esplanade",
                "Description": "",
                "name": "library@esplanade"
            },
            "geometry": {
                "type": "Point",
                "coordinates": [
                    103.855770250108,
                    1.28941165551051
                ]
            }
        },
        {
            "type": "Feature",
            "properties": {
                "Name": "Chua Chu Kang Public Library",
                "Description": "",
                "name": "Chua Chu Kang Public Library"
            },
            "geometry": {
                "type": "Point",
                "coordinates": [
                    103.745039269848,
                    1.38495919705382
                ]
            }
        },
        {
            "type": "Feature",
            "properties": {
                "Name": "Bukit Panjang Public Library",
                "Description": "",
                "name": "Bukit Panjang Public Library"
            },
            "geometry": {
                "type": "Point",
                "coordinates": [
                    103.764350064878,
                    1.37993637366735
                ]
            }
        },
        {
            "type": "Feature",
            "properties": {
                "Name": "Cheng San Public Library",
                "Description": "",
                "name": "Cheng San Public Library"
            },
            "geometry": {
                "type": "Point",
                "coordinates": [
                    103.893775348884,
                    1.3725726449182
                ]
            }
        },
        {
            "type": "Feature",
            "properties": {
                "Name": "Clementi Public Library",
                "Description": "",
                "name": "Clementi Public Library"
            },
            "geometry": {
                "type": "Point",
                "coordinates": [
                    103.764305614552,
                    1.31506201647581
                ]
            }
        },
        {
            "type": "Feature",
            "properties": {
                "Name": "Ang Mo Kio Public Library",
                "Description": "",
                "name": "Ang Mo Kio Public Library"
            },
            "geometry": {
                "type": "Point",
                "coordinates": [
                    103.845580674824,
                    1.37479006912036
                ]
            }
        },
        {
            "type": "Feature",
            "properties": {
                "Name": "Yishun Public Library",
                "Description": "",
                "name": "Yishun Public Library"
            },
            "geometry": {
                "type": "Point",
                "coordinates": [
                    103.835803458095,
                    1.42971547356642
                ]
            }
        },
        {
            "type": "Feature",
            "properties": {
                "Name": "Bishan Public Library",
                "Description": "",
                "name": "Bishan Public Library"
            },
            "geometry": {
                "type": "Point",
                "coordinates": [
                    103.848840445413,
                    1.3498506667736
                ]
            }
        },
        {
            "type": "Feature",
            "properties": {
                "Name": "Bedok Public Library",
                "Description": "",
                "name": "Bedok Public Library"
            },
            "geometry": {
                "type": "Point",
                "coordinates": [
                    103.931691125839,
                    1.32698939805286
                ]
            }
        },
        {
            "type": "Feature",
            "properties": {
                "Name": "Central Public Library",
                "Description": "",
                "name": "Central Public Library"
            },
            "geometry": {
                "type": "Point",
                "coordinates": [
                    103.854234798536,
                    1.2974201806193
                ]
            }
        },
        {
            "type": "Feature",
            "properties": {
                "Name": "Harbour Front Public Library",
                "Description": "",
                "name": "Harbour Front Public Library"
            },
            "geometry": {
                "type": "Point",
                "coordinates": [
                    103.82163145796,
                    1.26392174964736
                ]
            }
        },
        {
            "type": "Feature",
            "properties": {
                "Name": "Toa Payoh Public Library",
                "Description": "",
                "name": "Toa Payoh Public Library"
            },
            "geometry": {
                "type": "Point",
                "coordinates": [
                    103.85096929438,
                    1.33362463556477
                ]
            }
        },
        {
            "type": "Feature",
            "properties": {
                "Name": "Jurong Regional Library",
                "Description": "",
                "name": "Jurong Regional Library"
            },
            "geometry": {
                "type": "Point",
                "coordinates": [
                    103.739242870677,
                    1.33289451520808
                ]
            }
        },
        {
            "type": "Feature",
            "properties": {
                "Name": "Queenstown Public Library",
                "Description": "",
                "name": "Queenstown Public Library"
            },
            "geometry": {
                "type": "Point",
                "coordinates": [
                    103.805520397172,
                    1.29871263170447
                ]
            }
        },
        {
            "type": "Feature",
            "properties": {
                "Name": "Woodlands Regional Library",
                "Description": "",
                "name": "Woodlands Regional Library"
            },
            "geometry": {
                "type": "Point",
                "coordinates": [
                    103.786927526354,
                    1.43503700134939
                ]
            }
        },
        {
            "type": "Feature",
            "properties": {
                "Name": "Tampines Regional Library",
                "Description": "",
                "name": "Tampines Regional Library"
            },
            "geometry": {
                "type": "Point",
                "coordinates": [
                    103.944555866304,
                    1.35629183172687
                ]
            }
        },
        {
            "type": "Feature",
            "properties": {
                "Name": "Sembawang Public Library",
                "Description": "",
                "name": "Sembawang Public Library"
            },
            "geometry": {
                "type": "Point",
                "coordinates": [
                    103.819498553738,
                    1.44819664827432
                ]
            }
        }
    ]
}